[{"Website": "www.lipc.org", "Name": "Long Island Progressive Coalition", "Legislation": ["Clean Hands", "Statewide Right to Counsel", "Defend Right to Counsel", "Winter Eviction Moratorium"], "Phone": "516-541-1006", "Address": "90 Pennsylvania Ave, Massapequa, NY 11758", "Membership Status": ["Campaign Member"], "lat": 40.6786797, "lon": -73.4721662, "Senate_District": 8.0, "Assembly_District": 17.0, "County": "Nassau County", "Zip_Code": 11758.0}, {"Website": "https://www.facebook.com/Truevineministries2013/", "Name": "True Vine Ministries COGIC", "Legislation": ["Statewide Right to Counsel"], "Phone": "516-515-1469", "Address": "11 E Fulton Ave, Roosevelt, NY 11575", "Membership Status": ["Supporter"], "lat": 40.67603684782608, "lon": -73.58757002173913, "Senate_District": 6.0, "Assembly_District": 18.0, "County": "Nassau County", "Zip_Code": 11575.0}, {"Website": "https://wmcc1845.com/", "Name": "Wantagh Memorial Congregational Church", "Legislation": ["Statewide Right to Counsel"], "Phone": "516-785-1829", "Address": "1845 Wantagh Ave, Wantagh, NY 11793", "Membership Status": ["Supporter"], "lat": 40.67625542755695, "lon": -73.50971336370301, "Senate_District": 5.0, "Assembly_District": 14.0, "County": "Nassau County", "Zip_Code": 11793.0}, {"Website": "https://www.theccsh.org/", "Name": "Congregational Church of South Hempstead", "Legislation": ["Statewide Right to Counsel"], "Phone": "516-489-3610", "Address": "416 Woodland Dr, South Hempstead, NY 11550", "Membership Status": ["Supporter"], "lat": 40.686444, "lon": -73.620765, "Senate_District": 6.0, "Assembly_District": 21.0, "County": "Nassau County", "Zip_Code": 11550.0}]